City_ID,City,Lat,Lng,Max Temp,Humidity,Cloudiness,Wind Speed,Country,Date
0,Chokurdakh,70.6333,147.9167,9.16,87,100,7.34,RU,1681425354
1,Ushuaia,-54.8,-68.3,42.46,75,0,2.3,AR,1681425354
2,Iqaluit,63.7506,-68.5145,19.13,85,100,2.3,CA,1681425354
3,Byron Bay,-28.65,153.6167,68.7,65,33,12.57,AU,1681425111
4,Busselton,-33.65,115.3333,52.77,69,69,15.82,AU,1681425354
5,Mataura,-46.1927,168.8643,58.77,70,8,8.68,NZ,1681425355
6,Fairbanks,64.8378,-147.7164,20.08,62,40,5.75,US,1681425185
7,New Iberia,30.0035,-91.8187,73.47,40,0,12.66,US,1681425220
8,Jamestown,42.097,-79.2353,76.64,33,0,11.5,US,1681425112
9,Isangel,-19.55,169.2667,83.91,75,100,10.87,VU,1681425355
10,Bathsheba,13.2167,-59.5167,81.21,69,20,13.8,BB,1681425355
11,Carnarvon,-24.8667,113.6333,67.77,68,89,28.63,AU,1681425355
12,Bluff,-46.6,168.3333,57.51,74,4,15.84,NZ,1681425355
13,College,64.8569,-147.8028,20.08,63,75,5.75,US,1681425355
14,Faya,18.3851,42.4509,62.71,66,0,2.64,SA,1681425355
15,Hithadhoo,-0.6,73.0833,82.83,70,61,7.2,MV,1681425355
16,Buenos Aires,-34.6132,-58.3772,62.33,44,0,4.61,AR,1681425233
17,New Castle,41.0037,-80.347,83.48,22,0,6.91,US,1681425356
18,San Andrés del Rabanedo,42.6117,-5.6167,45.5,87,75,16.11,ES,1681425356
19,Khatanga,71.9667,102.5,16.99,75,99,23.58,RU,1681425356
20,Kahului,20.8947,-156.47,84.22,61,40,20.71,US,1681425356
21,New Norfolk,-42.7826,147.0587,55.92,70,40,2.48,AU,1681425356
22,Hong Kong,22.2855,114.1577,74.32,88,92,5.99,HK,1681425250
23,Rikitea,-23.1203,-134.9692,72.86,91,100,14.67,PF,1681425356
24,Barrow,71.2906,-156.7887,-3.98,77,0,10.36,US,1681425356
25,Saskylakh,71.9167,114.0833,-5.51,95,51,8.25,RU,1681425356
26,Ilulissat,69.2167,-51.1,24.82,93,100,0.0,GL,1681425356
27,Cape Town,-33.9258,18.4232,65.37,69,40,10.36,ZA,1681425356
28,Cherskiy,68.75,161.3,2.14,87,42,5.17,RU,1681425356
29,Bolton,53.5833,-2.4333,43.92,85,9,4.88,GB,1681425356
30,Banda Aceh,5.5577,95.3222,79.74,82,94,4.94,ID,1681425356
31,Vaini,-21.2,-175.2,86.16,70,20,12.66,TO,1681425356
32,Dingle,10.9995,122.6711,78.35,82,97,1.7,PH,1681425357
33,Adrar,20.5022,-10.0711,81.84,32,85,5.28,MR,1681425357
34,Grindavik,63.8424,-22.4338,42.75,93,100,6.91,IS,1681425357
35,Punta Arenas,-53.15,-70.9167,41.11,70,0,4.61,CL,1681425357
36,Tasiilaq,65.6145,-37.6368,33.96,92,88,4.12,GL,1681425357
37,Port Blair,11.6667,92.75,79.72,77,13,4.76,IN,1681425357
38,Tres Arroyos,-38.3739,-60.2798,47.8,62,94,6.4,AR,1681425102
39,Taoudenni,22.6783,-3.9836,84.79,8,61,6.31,ML,1681425357
40,Itoman,26.1247,127.6694,73.42,96,75,10.36,JP,1681425358
41,Souillac,-20.5167,57.5167,73.78,94,20,3.44,MU,1681425358
42,Hobart,-42.8794,147.3294,56.26,88,75,4.61,AU,1681425358
43,Pochutla,15.7432,-96.4661,86.83,48,8,8.5,MX,1681425358
44,Alofi,-19.0595,-169.9187,84.09,70,75,16.11,NU,1681425359
45,Launceston,-41.45,147.1667,52.34,87,40,5.75,AU,1681425359
46,São João da Barra,-21.6403,-41.0511,78.89,90,11,10.07,BR,1681425359
47,East London,-33.0153,27.9116,64.2,70,59,13.06,ZA,1681425360
48,Srednekolymsk,67.45,153.6833,15.08,83,64,7.36,RU,1681425360
49,Tura,25.5198,90.2201,74.61,26,99,4.34,IN,1681425360
50,Sabang,5.8933,95.3214,82.31,77,64,7.99,ID,1681425360
51,Arraial do Cabo,-22.9661,-42.0278,78.66,83,0,10.36,BR,1681425360
52,Bengkulu,-3.8004,102.2655,75.4,88,69,4.38,ID,1681425360
53,Albany,42.6001,-73.9662,86.41,63,3,7.0,US,1681425330
54,Mnogovershinnyy,53.9353,139.9242,20.61,90,100,10.11,RU,1681425360
55,Qaanaaq,77.484,-69.3632,7.16,78,2,2.71,GL,1681425360
56,Prachin Buri,14.0833,101.6667,81.68,80,100,1.28,TH,1681425360
57,Jinchang,38.4953,102.1739,41.29,61,71,7.85,CN,1681425360
58,Arona,28.0996,-16.681,64.9,59,0,17.27,ES,1681425360
59,Port Elizabeth,-33.918,25.5701,63.32,61,0,11.5,ZA,1681425360
60,Norman Wells,65.282,-126.8329,15.84,73,100,10.36,CA,1681425361
61,Berbera,10.4396,45.0143,82.76,81,64,5.88,SO,1681425361
62,Kontagora,10.3999,5.4695,86.23,19,10,4.47,NG,1681425362
63,Hermanus,-34.4187,19.2345,59.81,80,61,14.92,ZA,1681425362
64,Lüderitz,-26.6481,15.1594,61.38,61,26,15.55,NA,1681425362
65,Upernavik,72.7868,-56.1549,13.3,92,100,6.2,GL,1681425363
66,Sola,-13.8833,167.55,81.48,76,99,5.41,VU,1681425363
67,Marsá Maţrūḩ,31.3525,27.2453,55.6,88,0,3.44,EG,1681425363
68,Saint-Félicien,48.6501,-72.4491,63.28,39,75,8.05,CA,1681425364
69,Alugan,12.2188,125.4808,79.05,87,70,4.61,PH,1681425364
70,Ponta do Sol,32.6667,-17.1,67.01,73,71,9.17,PT,1681425364
71,Forsytheganj,52.6333,29.7333,47.16,80,100,11.07,BY,1681425365
72,Pangnirtung,66.1451,-65.7125,17.6,79,40,3.44,CA,1681425365
73,Puerto Ayora,-0.7393,-90.3518,89.56,88,83,5.01,EC,1681425365
74,Suoyarvi,62.0833,32.35,21.38,90,11,8.57,RU,1681425193
75,Câmara de Lobos,32.6333,-16.9667,67.01,88,40,14.97,PT,1681425366
76,Kapaa,22.0752,-159.319,78.78,83,100,25.32,US,1681425366
77,Saint Paul Harbor,57.79,-152.4072,36.91,87,100,10.36,US,1681425367
78,Danielskuil,-28.1887,23.5395,55.11,20,27,9.08,ZA,1681425367
79,Guangming,45.3333,122.7833,42.85,25,93,4.03,CN,1681425367
80,Henties Bay,-22.116,14.2845,58.23,85,0,7.45,NA,1681425368
81,Erzurum Province,40.0,41.5,35.28,85,91,4.56,TR,1681425218
82,Vila Velha,-20.3297,-40.2925,78.75,91,40,8.05,BR,1681425368
83,Ankazoabo,-22.2833,44.5167,68.58,85,2,4.99,MG,1681425368
84,Bayan,46.0833,127.4,40.06,48,9,4.79,CN,1681425369
85,Khilok,51.3674,110.4676,17.46,78,81,2.93,RU,1681425369
86,Castro,-24.7911,-50.0119,63.16,85,66,3.2,BR,1681425369
87,Athens,37.9795,23.7162,62.33,78,0,4.61,GR,1681425212
88,Ambon City,-3.6954,128.1814,77.14,94,20,8.05,ID,1681425369
89,Chernomorskiy,44.8506,38.4936,50.49,83,96,14.94,RU,1681425370
90,Lata,40.1629,-8.3327,50.07,95,96,2.06,PT,1681425370
91,Puerto Baquerizo Moreno,-0.9,-89.6,79.79,94,40,2.3,EC,1681425370
92,Klyuchevskiy,53.5317,119.4519,22.73,81,97,2.37,RU,1681425371
93,Atuona,-9.8,-139.0333,80.11,71,74,6.4,PF,1681425371
94,Belmonte,-15.8631,-38.8828,77.09,82,11,7.0,BR,1681425371
95,Clyde River,70.4692,-68.5914,10.63,67,75,16.11,CA,1681425371
96,Lincoln,40.8,-96.667,87.87,20,0,28.77,US,1681425130
97,Kamen'-Rybolov,44.7481,132.0403,38.75,57,2,1.88,RU,1681425372
98,Ushtobe,45.2514,77.9838,52.29,41,52,6.6,KZ,1681425372
99,Kavieng,-2.5744,150.7967,83.61,76,66,12.19,PG,1681425373
100,George Town,5.4112,100.3354,83.95,92,20,4.61,MY,1681425326
101,Katsuura,35.1333,140.3,64.38,70,86,17.47,JP,1681425374
102,Mahébourg,-20.4081,57.7,76.24,94,20,3.44,MU,1681425374
103,Port Alfred,-33.5906,26.891,57.18,86,28,3.0,ZA,1681425374
104,Correntina,-13.3433,-44.6367,75.78,60,73,2.13,BR,1681425374
105,Makakilo City,21.3469,-158.0858,82.72,56,75,17.27,US,1681425375
106,Tuktoyaktuk,69.4541,-133.0374,-2.2,71,75,8.05,CA,1681425375
107,Wagar,16.1525,36.2032,74.93,51,16,10.6,SD,1681425375
108,Leningradskiy,69.3833,178.4167,1.62,87,62,4.9,RU,1681425375
109,Sur,22.5667,59.5289,84.42,49,1,4.52,OM,1681425375
110,Yellowknife,62.456,-114.3525,27.12,74,100,4.61,CA,1681425376
111,Daru,-9.0763,143.2092,81.12,76,94,3.65,PG,1681425376
112,Itarema,-2.9248,-39.9167,77.45,86,99,11.32,BR,1681425376
113,Bredasdorp,-34.5322,20.0403,59.59,81,35,15.21,ZA,1681425376
114,Cowra,-33.8333,148.6833,62.28,66,0,9.73,AU,1681425376
115,Ballina,-28.8667,153.5667,68.77,65,68,11.9,AU,1681425377
116,Tupiza,-21.45,-65.7167,61.11,15,0,11.34,BO,1681425377
117,Avarua,-21.2078,-159.775,80.65,65,65,9.22,CK,1681425377
118,San Blas,21.5167,-105.2667,93.09,49,38,7.07,MX,1681425378
119,Chui,-33.6971,-53.4616,56.57,66,8,8.84,UY,1681425378
120,Kilemary,56.7783,46.8659,27.63,64,32,15.95,RU,1681425378
121,Mayo,38.8876,-76.5119,89.55,41,0,11.5,US,1681425379
122,Diffa,13.3154,12.6113,80.04,13,22,10.13,NE,1681425379
123,Sylacauga,33.1732,-86.2516,71.78,83,100,6.91,US,1681425256
124,Oranjemund,-28.55,16.4333,58.48,91,100,8.08,NA,1681425379
125,Yuli,9.6989,10.2744,84.15,17,39,6.13,NG,1681425379
126,Kondol',52.8189,45.058,46.06,62,100,25.9,RU,1681425380
127,Suffolk,40.8668,-72.7996,81.03,53,0,14.97,US,1681425290
128,Çorum Province,40.5,34.75,39.63,71,13,4.18,TR,1681425380
129,Saint George,37.1041,-113.5841,72.95,22,20,16.11,US,1681425238
130,Aklavik,68.2191,-135.0107,3.2,60,75,6.91,CA,1681425381
131,Ayan,56.45,138.1667,27.81,63,100,17.25,RU,1681425381
132,Constitución,-35.3333,-72.4167,55.18,92,64,7.29,CL,1681425108
133,Igurusi,-8.85,33.85,62.24,93,99,2.33,TZ,1681425381
134,Saint John,45.2727,-66.0677,51.03,50,40,14.97,CA,1681425318
135,Tunceli,39.1083,39.5471,37.63,94,79,2.82,TR,1681425325
136,Namatanai,-3.6667,152.4333,81.79,80,100,12.91,PG,1681425382
137,Hilo,19.7297,-155.09,74.62,84,100,8.05,US,1681425287
138,Bafra,41.5678,35.9069,53.82,82,52,6.42,TR,1681425382
139,Nador,35.174,-2.9287,66.45,37,0,12.66,MA,1681425382
140,Padang,-0.9492,100.3543,75.25,89,68,2.89,ID,1681425382
141,Mossamedes,-15.1961,12.1522,73.45,72,15,5.5,AO,1681425382
142,Chany,55.3121,76.7647,26.56,90,58,16.84,RU,1681425383
143,Galveston,29.3669,-94.9669,77.09,65,20,13.8,US,1681425383
144,Ulaangom,49.9811,92.0667,20.71,77,19,2.62,MN,1681425383
145,Wanning,18.8003,110.3967,76.37,91,96,5.55,CN,1681425384
146,Cabo San Lucas,22.8909,-109.9124,87.19,39,20,18.41,MX,1681425295
147,Abapó,-18.8333,-63.4667,67.06,98,80,5.17,BO,1681425384
148,Ribeira Grande,38.5167,-28.7,62.78,92,94,15.01,PT,1681425384
149,Menongue,-14.6585,17.691,65.41,79,97,4.41,AO,1681425384
150,Nouadhibou,20.931,-17.0347,71.58,83,40,3.44,MR,1681425384
151,Departamento de Maldonado,-34.6667,-54.9167,60.13,68,20,5.91,UY,1681425384
152,The Valley,18.217,-63.0578,80.46,73,40,11.5,AI,1681425385
153,Petropavlovsk-Kamchatskiy,53.0452,158.6483,32.59,100,75,2.24,RU,1681425385
154,Rafaela,-31.2503,-61.4867,60.98,48,41,5.01,AR,1681425385
155,Mandurah,-32.55,115.7,57.56,62,75,25.12,AU,1681425262
156,Dunedin,-45.8742,170.5036,56.8,69,100,5.99,NZ,1681425386
157,Chifeng,42.2683,118.9636,46.92,36,34,3.8,CN,1681425386
158,Marsh Harbour,26.5412,-77.0636,76.44,80,6,15.21,BS,1681425386
159,Takoradze,4.8845,-1.7554,80.83,85,3,5.61,GH,1681425386
160,Aguada de Pasajeros,22.385,-80.8508,83.77,47,17,8.57,CU,1681425386
161,Fort Nelson,58.8053,-122.7002,45.99,34,75,5.75,CA,1681425387
162,Faanui,-16.4833,-151.75,81.77,71,16,7.87,PF,1681425387
163,Kem',64.9555,34.5793,8.37,95,4,3.62,RU,1681425387
164,Kushima,31.4583,131.2333,66.18,69,100,5.08,JP,1681425387
165,Chapais,49.7834,-74.8492,51.58,80,100,12.12,CA,1681425387
166,Moberly,39.4184,-92.4382,77.68,46,32,9.55,US,1681425387
167,Sulangan,11.1373,123.7228,81.63,76,52,5.48,PH,1681425387
168,Jūybār,36.6412,52.9124,59.02,85,20,4.88,IR,1681425387
169,Nizwá,22.9333,57.5333,77.85,51,21,1.45,OM,1681425388
170,Brae,60.3964,-1.353,43.11,87,88,15.08,GB,1681425388
171,Dikson,73.5069,80.5464,-14.33,100,94,8.52,RU,1681425239
172,Gualaquiza,-3.4,-78.55,68.34,93,69,1.19,EC,1681425388
173,Chimbarongo,-34.7,-71.05,68.88,48,100,3.51,CL,1681425388
174,Verkhnevilyuysk,63.4453,120.3167,17.08,92,80,3.62,RU,1681425388
175,Avera,33.194,-82.5271,66.25,88,91,14.41,US,1681425388
176,Kavaratti,10.5669,72.642,83.17,74,100,5.53,IN,1681425388
177,Plettenberg Bay,-34.0527,23.3716,59.86,77,0,11.97,ZA,1681425388
178,Penzance,50.1186,-5.5371,48.88,80,99,16.11,GB,1681425222
179,Cidreira,-30.1811,-50.2056,66.92,79,100,8.77,BR,1681425389
180,Salta,-24.7859,-65.4117,59.59,92,100,10.36,AR,1681425389
181,Kaitangata,-46.2817,169.8464,59.94,69,63,12.97,NZ,1681425389
182,Porto Velho,-8.7619,-63.9039,78.85,89,20,1.14,BR,1681425094
183,San Buenaventura,27.0833,-101.5333,87.48,32,75,9.22,MX,1681425390
184,Morón,-34.6534,-58.6198,62.35,46,1,5.79,AR,1681425390
185,Aleksandrov Gay,50.147,48.5704,54.86,78,100,23.09,RU,1681425390
186,Mattru,7.6244,-11.8332,80.17,81,50,3.65,SL,1681425391
187,Brixen,46.715,11.656,41.14,95,100,4.43,IT,1681425391
188,Airai,-8.9266,125.4092,64.9,87,21,1.52,TL,1681425391
189,Kruisfontein,-34.0033,24.7314,57.88,67,0,15.97,ZA,1681425392
190,Bambous Virieux,-20.3428,57.7575,76.21,94,20,3.44,MU,1681425392
191,Zolotukhino,52.0842,36.3772,50.07,85,100,8.55,RU,1681425392
192,Bethel,41.3712,-73.414,89.69,18,0,8.05,US,1681425393
193,Lázaro Cárdenas,17.9583,-102.2,83.3,51,3,11.9,MX,1681425393
194,Tommot,58.9564,126.2925,21.0,97,100,1.88,RU,1681425393
195,Masindi,1.6744,31.715,66.85,88,100,2.15,UG,1681425393
196,Dudinka,69.4058,86.1778,-16.38,99,100,8.46,RU,1681425393
197,San Andrés,12.5847,-81.7006,84.22,65,40,14.97,CO,1681425393
198,Pevek,69.7008,170.3133,2.41,91,95,3.18,RU,1681425393
199,Lubango,-14.9172,13.4925,61.32,80,75,3.78,AO,1681425393
200,Talon,11.56,122.6811,74.21,84,91,3.42,PH,1681425393
201,Guanare,9.0418,-69.7421,104.02,21,43,3.44,VE,1681425393
202,Esperance,-33.8667,121.9,56.07,73,76,26.04,AU,1681425393
203,Oyón,-10.6681,-76.7731,48.06,91,99,3.74,PE,1681425393
204,Okha,53.5739,142.9478,30.99,98,100,13.29,RU,1681425131
205,Muros,42.7762,-9.0603,56.08,85,100,16.51,ES,1681425394
206,Novoagansk,61.9449,76.6625,-5.17,95,74,9.71,RU,1681425394
207,Næstved,55.2299,11.7609,41.25,87,80,1.95,DK,1681425394
208,Manzanillo,20.3433,-77.1167,80.92,69,84,4.85,CU,1681425394
209,Katobu,-4.9408,122.5276,76.84,92,91,1.63,ID,1681425394
210,Portland,45.5234,-122.6762,56.8,51,75,4.61,US,1681425293
211,Camacha,33.0833,-16.3333,60.22,72,75,14.97,PT,1681425395
212,Thompson,55.7435,-97.8558,44.76,45,75,5.75,CA,1681425395
213,Ginda,30.6945,78.4932,55.92,35,0,8.25,IN,1681425395
214,Gorgan,36.8387,54.4348,53.56,88,0,11.5,IR,1681425395
215,Balkanabat,39.5108,54.3671,64.92,65,83,9.1,TM,1681425395
216,Brufut,13.3814,-16.7518,80.69,61,0,8.05,GM,1681425396
217,Vila Franca do Campo,37.7167,-25.4333,61.21,90,58,5.66,PT,1681425396
218,Lima,-12.0432,-77.0282,79.05,65,75,11.5,PE,1681425331
219,Bāgeshwar,29.85,79.7667,61.65,35,16,4.03,IN,1681425396
220,Båtsfjord,70.6345,29.7185,30.13,68,14,26.46,NO,1681425396
221,Asău,46.4333,26.4,41.92,82,12,3.18,RO,1681425396
222,Vao,-22.6667,167.4833,73.85,93,100,12.1,NC,1681425396
223,Puerto Colombia,10.9878,-74.9547,82.49,82,9,26.42,CO,1681425396
224,Codrington,-38.2667,141.9667,59.56,78,4,8.55,AU,1681425396
225,Klaksvík,62.2266,-6.589,45.52,80,100,15.21,FO,1681425396
226,San Jerónimo,-11.9472,-75.2829,54.05,73,55,5.44,PE,1681425397
227,Bonavista,48.6499,-53.1147,31.15,90,100,16.89,CA,1681425397
228,Biloela,-24.4167,150.5,71.8,39,0,5.06,AU,1681425397
229,Meulaboh,4.1363,96.1285,76.35,91,95,3.51,ID,1681425397
230,Broken Hill,-31.95,141.4333,61.09,63,10,8.14,AU,1681425397
231,Pisco,-13.7,-76.2167,80.65,61,13,20.71,PE,1681425397
232,Butaritari,3.0707,172.7902,81.41,79,42,11.7,KI,1681425397
233,Narsaq,60.9167,-46.05,46.62,80,99,7.02,GL,1681425397
234,Philadelphia,39.9523,-75.1638,86.25,29,0,13.8,US,1681425192
235,Alberton,46.8168,-64.0654,51.93,83,63,10.02,CA,1681425397
236,Cayenne,4.9333,-52.3333,77.04,94,75,5.75,GF,1681425398
237,Yar-Sale,66.8333,70.8333,-4.7,92,37,12.3,RU,1681425398
238,Manaus,-3.1019,-60.025,86.49,66,20,5.75,BR,1681425398
239,Aginskoye,51.1,114.53,29.07,75,100,13.65,RU,1681425398
240,Hervey Bay,-25.2986,152.8535,70.92,47,0,6.15,AU,1681425394
241,Batagay-Alyta,67.8006,130.4114,10.4,80,98,2.98,RU,1681425398
242,Saint-Philippe,-21.3585,55.7679,74.79,84,79,1.05,RE,1681425399
243,Radviliškis,55.8167,23.5333,46.45,87,100,8.05,LT,1681425399
244,San Patricio,28.017,-97.5169,80.19,49,42,13.51,US,1681425399
245,Mount Gambier,-37.8333,140.7667,59.38,76,1,7.25,AU,1681425399
246,Jaru,-10.4389,-62.4664,76.15,92,99,2.04,BR,1681425399
247,Soyo,-6.1349,12.3689,79.74,77,48,3.62,AO,1681425399
248,Saldanha,-33.0117,17.9442,59.05,87,12,11.01,ZA,1681425399
249,Coquimbo,-29.9533,-71.3436,64.13,77,0,11.5,CL,1681425399
250,Ancud,-41.8697,-73.8203,52.81,79,39,3.58,CL,1681425399
251,Mahibadhoo,3.7833,72.9667,82.44,74,11,4.54,MV,1681425399
252,Ketchikan,55.3422,-131.6461,45.07,70,100,10.36,US,1681425330
253,Lujiang,31.2581,117.2817,67.17,90,95,3.78,CN,1681425399
254,Kushmurun,52.4503,64.6311,50.76,62,100,2.82,KZ,1681425399
255,Sinjār,36.3209,41.8754,50.2,71,27,4.03,IQ,1681425399
256,Richards Bay,-28.783,32.0377,69.78,91,67,6.46,ZA,1681425399
257,Saint-Pierre,-21.3393,55.4781,75.56,78,0,5.75,RE,1681425400
258,Tiksi,71.6872,128.8694,13.75,77,100,3.0,RU,1681425400
259,Port Hardy,50.6996,-127.4199,44.78,70,75,8.05,CA,1681425400
260,Manicoré,-5.8092,-61.3003,77.32,90,100,0.98,BR,1681425401
261,Lebu,-37.6167,-73.65,56.32,94,50,3.53,CL,1681425223
262,Mandalgovi,45.7625,106.2708,20.75,54,0,8.63,MN,1681425401
263,San Quintín,30.4833,-115.95,58.77,61,26,17.52,MX,1681425401
264,Kathu,7.9178,98.3332,82.22,81,22,8.48,TH,1681425401
265,Ekhabi,53.5102,142.9671,30.96,98,100,12.66,RU,1681425401
266,Ekibastuz,51.6667,75.3667,49.69,49,100,12.62,KZ,1681425401
267,Hay River,60.8156,-115.7999,31.96,80,20,12.66,CA,1681425401
268,Salalah,17.0151,54.0924,80.74,73,9,2.35,OM,1681425401
269,Lagoa,39.05,-27.9833,61.16,84,100,10.6,PT,1681425401
270,Siocon,7.7061,122.1353,79.68,77,84,2.19,PH,1681425401
271,Ngatea,-37.2833,175.5,67.03,78,92,10.69,NZ,1681425402
272,Torbay,47.6666,-52.7314,37.27,95,75,12.66,CA,1681425402
273,Kilindoni,-7.9139,39.6668,80.83,79,98,10.22,TZ,1681425402
274,Provideniya,64.3833,-173.3,10.51,48,0,7.0,RU,1681425402
275,Phonhong,18.5007,102.4166,80.22,61,96,2.28,LA,1681425402
276,Fitii,-16.7333,-151.0333,80.89,68,22,6.31,PF,1681425402
277,Manyana,-23.4,21.7167,69.17,27,1,5.23,BW,1681425402
278,Qeshm,26.9581,56.2719,78.69,70,99,3.36,IR,1681425402
279,Iskateley,67.6803,53.1512,15.78,93,97,13.73,RU,1681425402
280,Severo-Kuril'sk,50.6789,156.125,34.43,94,8,11.1,RU,1681425403
281,Mwinilunga,-11.7358,24.4293,60.84,97,24,3.22,ZM,1681425403
282,Loandjili,-4.7561,11.8578,79.45,83,15,2.66,CG,1681425403
283,Elizabeth City,36.2946,-76.2511,84.22,31,0,12.66,US,1681425403
284,Mar del Plata,-38.0023,-57.5575,55.94,74,40,16.11,AR,1681425403
285,Sannat,36.0244,14.2428,60.04,79,78,4.0,MT,1681425403
286,Coyhaique,-45.5752,-72.0662,54.21,43,0,5.75,CL,1681425109
287,Gisborne,-38.6533,178.0042,62.89,80,100,7.96,NZ,1681425403
288,Boguchany,58.3814,97.4531,32.81,91,100,9.73,RU,1681425139
289,Shirgaon,19.7,72.7,83.41,59,100,9.22,IN,1681425404
290,Balakhninskiy,58.0106,114.2769,9.21,93,28,1.28,RU,1681425404
291,Egvekinot,66.3167,-179.1667,1.76,72,12,5.19,RU,1681425316
292,Carrickfergus,54.7158,-5.8058,42.76,78,21,3.44,GB,1681425380
293,Yeppoon,-23.1333,150.7333,69.58,39,0,5.61,AU,1681425404
294,Buchanan,5.8808,-10.0467,77.2,85,99,0.81,LR,1681425404
295,Sitka,57.0531,-135.33,40.89,75,100,17.27,US,1681425404
296,Fiumicino,41.7675,12.2291,53.01,75,40,3.44,IT,1681425404
297,Kloulklubed,7.0419,134.2556,77.5,76,45,11.18,PW,1681425404
298,Gornopravdinsk,60.05,69.9,4.96,94,75,6.69,RU,1681425404
299,Talnakh,69.4865,88.3972,-16.8,97,100,8.16,RU,1681425193
300,Gumdag,39.2061,54.5906,62.74,72,79,9.28,TM,1681425404
301,Visby,57.6409,18.296,47.03,87,100,13.8,SE,1681425404
302,Viedma,-40.8135,-62.9967,49.44,58,1,4.34,AR,1681425405
303,Mutoko,-17.397,32.2268,60.19,86,100,1.57,ZW,1681425405
304,Road Town,18.4167,-64.6167,82.49,73,20,6.91,VG,1681425405
305,Samaná,19.2056,-69.3369,78.76,82,11,9.22,DO,1681425405
306,La Ronge,55.1001,-105.2842,50.25,27,75,5.75,CA,1681425405
307,Ughelli,5.4899,6.0074,77.79,91,41,3.8,NG,1681425406
308,Naryan-Mar,67.6713,53.087,15.69,93,96,13.76,RU,1681425406
309,Conceição do Araguaia,-8.2578,-49.2647,76.55,85,100,3.67,BR,1681425406
310,Kashgar,39.4547,75.9797,58.21,26,11,6.71,CN,1681425406
311,Sokolo,14.7328,-6.1219,90.28,15,100,9.22,ML,1681425406
312,Hofn,64.2539,-15.2082,41.27,72,100,12.73,IS,1681425406
313,Camacupa,-12.0167,17.4833,59.86,97,79,1.74,AO,1681425406
314,Huicungo,-7.2833,-76.8,78.89,78,97,1.77,PE,1681425406
315,Mabaruma,8.2,-59.7833,76.82,84,77,5.57,GY,1681425406
316,Gannan,47.9147,123.5031,38.97,57,51,6.62,CN,1681425406
317,Chicama,-7.8447,-79.1469,82.94,76,99,7.16,PE,1681425406
318,Si Chiang Mai,17.9564,102.5867,88.95,64,100,6.38,TH,1681425406
319,Iquique,-20.2208,-70.1431,71.64,78,6,5.64,CL,1681425179
320,Butembo,0.15,29.2833,58.75,95,100,2.13,CD,1681425407
321,Japura,-0.3167,102.35,73.53,99,92,0.29,ID,1681425407
322,Okhotsk,59.3833,143.3,24.33,80,100,11.18,RU,1681425407
323,Hasaki,35.7333,140.8333,64.29,68,32,18.45,JP,1681425407
324,Frejlev,57.0062,9.8171,42.58,87,13,9.22,DK,1681425407
325,Nikolskoye,59.7035,30.7861,37.29,77,100,10.16,RU,1681425407
326,Nouakchott,18.0858,-15.9785,78.73,71,84,11.12,MR,1681425407
327,Liberal,37.0431,-100.921,88.84,18,0,29.93,US,1681425407
328,Villaviciosa,43.4813,-5.4357,55.0,83,100,5.06,ES,1681425408
329,Nangong,37.3581,115.3744,61.47,41,94,14.14,CN,1681425408
330,Krasnosel'kup,65.7,82.4667,-3.93,98,91,10.13,RU,1681425315
331,Nantucket,41.2835,-70.0995,69.91,71,0,11.5,US,1681425260
332,Port Lincoln,-34.7333,135.8667,64.49,53,96,16.51,AU,1681425408
333,Yumen,40.2833,97.2,41.52,41,96,10.89,CN,1681425408
334,Guarapari,-20.6667,-40.4975,77.9,91,47,8.23,BR,1681425408
335,Nome,64.5011,-165.4064,7.16,77,0,10.36,US,1681425408
336,Moose Factory,51.2585,-80.6094,35.6,69,100,10.36,CA,1681425408
337,Alvorada,-12.48,-49.1247,78.4,78,100,3.15,BR,1681425408
338,Troitsko-Pechorsk,62.7084,56.1964,0.43,96,6,5.68,RU,1681425408
339,Magway,20.15,94.9167,82.11,38,1,4.79,MM,1681425408
340,Aksarka,66.5606,67.7975,-17.5,91,5,5.35,RU,1681425409
341,Kargil,34.5667,76.1,25.47,62,44,3.0,IN,1681425409
342,Juanjuí,-7.1779,-76.7314,80.71,76,97,2.08,PE,1681425409
343,San Vicente,-26.6167,-54.1333,62.13,100,100,2.26,AR,1681425409
344,Gambēla,8.25,34.5833,78.48,66,89,2.66,ET,1681425409
345,Taltal,-25.4,-70.4833,67.12,77,14,6.04,CL,1681425409
346,Great Yarmouth,52.6083,1.7305,45.07,87,63,9.71,GB,1681425409
347,Sémbé,1.6481,14.5806,70.88,98,28,1.81,CG,1681425409
348,Porto-Novo,6.4965,2.6036,85.82,83,34,9.31,BJ,1681425409
349,Basco,20.4487,121.9702,78.3,87,99,13.44,PH,1681425409
350,Ampanihy,-24.7,44.75,67.05,98,29,6.22,MG,1681425409
351,Otane,-39.8833,176.6333,63.01,92,100,6.76,NZ,1681425409
352,Coahuayana Viejo,18.7333,-103.6833,86.38,38,2,7.61,MX,1681425409
353,Lazurne,46.084,32.5295,48.04,87,50,10.58,UA,1681425409
354,Ruidoso,33.3317,-105.673,69.96,12,75,21.85,US,1681425299
355,Thinadhoo,0.5333,72.9333,82.27,76,33,7.67,MV,1681425410
356,Kinablangan,7.6947,126.5503,79.9,83,9,1.79,PH,1681425410
357,Amahai,-3.3333,128.9167,81.0,79,83,4.0,ID,1681425410
358,Pitimbu,-7.4706,-34.8086,79.39,71,89,7.02,BR,1681425410
359,Havøysund,70.9963,24.6622,34.03,74,8,7.2,NO,1681425410
360,Weligama,5.9667,80.4167,76.93,91,54,4.38,LK,1681425410
361,Frontera,26.9333,-101.45,86.32,32,75,9.22,MX,1681425410
362,Black River,18.0264,-77.8487,79.72,77,42,1.61,JM,1681425410
363,Williams Lake,52.1415,-122.1445,40.57,65,75,6.91,CA,1681425410
364,Aasiaat,68.7098,-52.8699,16.88,96,83,0.83,GL,1681425410
365,Dodge City,37.7528,-100.0171,88.05,22,0,32.21,US,1681425236
366,Bealanana,-14.55,48.7333,62.73,97,62,1.25,MG,1681425410
367,Zemio,5.0314,25.1361,68.99,91,88,2.84,CF,1681425410
368,Manzhouli,49.6,117.4333,32.67,58,92,5.75,CN,1681425411
369,Altamira,-3.2033,-52.2064,74.41,98,94,2.86,BR,1681425411
370,Roald,62.5833,6.1333,50.14,50,100,18.41,NO,1681425411
371,Te Anau,-45.4167,167.7167,55.62,71,28,1.07,NZ,1681425411
372,Severomuysk,56.1481,113.4267,2.21,88,23,0.81,RU,1681425411
373,Fortuna,40.5982,-124.1573,55.92,68,38,5.01,US,1681425411
374,Valparaíso,-33.0393,-71.6273,69.44,60,0,11.5,CL,1681425160
375,Jatai,-17.8814,-51.7144,70.86,89,58,1.9,BR,1681425411
376,Yambio,4.5721,28.3955,67.48,97,100,2.46,SS,1681425411
377,Damaturu,11.747,11.9608,78.93,14,45,8.37,NG,1681425411
378,‘Āhuimanu,21.4447,-157.8378,83.91,64,75,17.27,US,1681425411
379,Hua Hin,12.5707,99.9588,82.42,74,20,0.0,TH,1681425411
380,Sirte,31.2089,16.5887,72.09,25,87,11.54,LY,1681425411
381,Ozernovskiy,51.5,156.5167,36.0,92,51,7.45,RU,1681425411
382,Manakara,-22.1333,48.0167,74.1,87,39,1.5,MG,1681425412
383,Bela,25.9333,81.9833,83.5,22,20,6.98,IN,1681425412
384,Bolivar,37.6145,-93.4105,75.58,41,74,6.29,US,1681425412
385,Monster,52.0258,4.175,45.99,79,20,9.22,NL,1681425412
386,Port Augusta,-32.5,137.7667,64.47,52,63,7.63,AU,1681425412
387,Baykit,61.67,96.37,7.88,91,100,3.44,RU,1681425412
388,Abatskiy,56.2875,70.4555,17.96,84,100,15.79,RU,1681425412
389,Beringovskiy,63.05,179.3167,6.44,78,44,8.19,RU,1681425412
390,Beloha,-25.1667,45.05,68.0,96,7,6.24,MG,1681425412
391,Rosetta,31.4044,30.4164,59.72,77,0,3.29,EG,1681425412
392,Paamiut,61.994,-49.6678,35.98,64,100,5.91,GL,1681425412
393,Lompoc,34.6391,-120.4579,70.02,64,20,24.0,US,1681425412
394,Óbidos,-1.9175,-55.5181,77.97,87,92,1.7,BR,1681425412
395,Chara,56.9064,118.2631,19.2,92,100,0.92,RU,1681425412
396,Klyuchi,52.2667,79.1667,44.19,45,36,11.1,RU,1681425413
397,Atlantic Beach,30.3344,-81.3987,78.06,78,75,13.8,US,1681425413
398,Pustoshka,56.3355,29.369,47.08,72,100,10.47,RU,1681425413
399,Shimoda,34.6667,138.95,62.1,62,100,11.18,JP,1681425413
400,Hīt,33.6416,42.8251,60.57,60,31,5.37,IQ,1681425413
401,Tarquinia,42.2482,11.7553,49.8,81,6,19.51,IT,1681425413
402,Dafeng,23.4517,108.5881,73.54,93,98,4.54,CN,1681425413
403,Alice Springs,-23.7,133.8833,74.75,35,100,5.75,AU,1681425413
404,The Pas,53.8251,-101.2541,50.02,40,75,8.05,CA,1681425413
405,Caravelas,-17.7125,-39.2481,75.61,90,31,4.92,BR,1681425414
406,Ligayan,4.6533,119.4706,82.17,76,86,7.67,PH,1681425414
407,Dongsheng,39.8161,109.9776,37.09,38,100,7.11,CN,1681425414
408,Sabha,27.0377,14.4283,68.85,10,37,10.4,LY,1681425414
409,Husavik,66.0449,-17.3389,34.79,90,96,2.84,IS,1681425414
410,Kasongo-Lunda,-6.4667,16.8167,70.2,94,42,0.51,CD,1681425414
411,St. George's,12.0564,-61.7485,82.08,65,20,11.5,GD,1681425414
412,Sarrebourg,48.7333,7.05,43.41,91,86,5.35,FR,1681425414
413,Prainha,-1.8,-53.48,76.28,92,99,3.11,BR,1681425414
414,Necochea,-38.5473,-58.7368,55.69,57,100,13.38,AR,1681425414
415,Kinshasa,-4.3246,15.3215,75.31,79,2,0.81,CD,1681425300
416,San Cristobal,7.7669,-72.225,77.18,62,99,1.77,VE,1681425415
417,Narón,43.5167,-8.1528,55.02,92,100,17.63,ES,1681425415
418,Gilgit,35.9221,74.3087,53.46,46,62,5.08,PK,1681425415
419,Banjar,-8.19,114.9675,78.1,89,100,5.46,ID,1681425415
420,Circleville,39.6006,-82.946,81.18,13,0,0.0,US,1681425415
421,Marzuq,14.4,46.4667,72.55,70,98,6.6,YE,1681425415
422,Goundam,16.4145,-3.6708,86.11,11,92,10.6,ML,1681425415
423,Lavrentiya,65.5833,-171.0,5.68,74,13,8.61,RU,1681425415
424,Koumac,-20.5667,164.2833,77.18,84,100,3.06,NC,1681425415
425,Natá,8.3333,-80.5167,89.47,56,89,16.51,PA,1681425415
426,Bonthe,7.5264,-12.505,79.59,85,14,5.82,SL,1681425415
427,Dachnoye,44.7167,33.8167,49.75,82,98,5.1,UA,1681425415
428,Longyearbyen,78.2186,15.6401,31.84,86,75,4.61,SJ,1681425415
429,Gorontalo,0.5412,123.0595,77.99,92,41,2.77,ID,1681425415
430,Itaituba,-4.2761,-55.9836,75.94,96,99,2.68,BR,1681425415
431,Okakarara,-20.5833,17.4333,71.62,24,88,6.71,NA,1681425416
432,Bilma,18.6853,12.9164,77.76,9,45,6.04,NE,1681425416
433,Falun,60.6036,15.626,38.21,84,100,10.4,SE,1681425416
434,Vila do Maio,15.1333,-23.2167,74.19,81,79,11.03,CV,1681425416
435,Funadhoo,6.15,73.2667,82.69,73,76,1.9,MV,1681425417
436,Sangar,63.9242,127.4739,18.68,99,100,4.47,RU,1681425417
437,Carutapera,-1.195,-46.02,77.81,87,99,6.24,BR,1681425417
438,Sovetskiy,61.3614,63.5842,-1.03,98,47,3.71,RU,1681425417
439,Isiro,2.7739,27.616,66.25,98,100,1.28,CD,1681425417
440,Batemans Bay,-35.7167,150.1833,62.1,81,85,8.81,AU,1681425417
441,Lucapa,-8.4192,20.7447,66.24,96,14,2.55,AO,1681425417
442,Quatre Cocos,-20.2078,57.7625,76.08,83,0,0.13,MU,1681425417
443,Vardø,70.3705,31.1107,28.38,69,14,29.93,NO,1681425417
444,Port Hedland,-20.3167,118.5667,80.65,83,75,10.36,AU,1681425417
445,Kulhudhuffushi,6.6221,73.07,82.72,73,100,2.1,MV,1681425417
446,Leshukonskoye,64.8989,45.7622,-1.66,99,8,1.7,RU,1681425191
447,Myski,53.709,87.8014,37.92,78,100,9.04,RU,1681425418
448,Yantal',56.8471,105.2542,20.57,80,95,7.38,RU,1681425418
449,Udachny,66.4167,112.4,16.45,51,92,17.63,RU,1681425418
450,Hailar,49.2,119.7,31.87,61,0,5.01,CN,1681425418
451,Tazovsky,67.4667,78.7,-2.9,95,100,16.6,RU,1681425135
452,Tongliao,43.6125,122.2653,45.39,26,95,7.38,CN,1681425418
453,Katherine,-14.4667,132.2667,79.12,83,40,5.75,AU,1681425418
454,Vyshestebliyevskaya,45.1961,37.0181,50.43,85,100,12.88,RU,1681425418
455,Ciudad de Allende,25.2833,-100.0167,79.83,58,78,8.05,MX,1681425398
456,Tucupita,9.0622,-62.051,80.11,57,91,5.06,VE,1681425418
457,Eidsvåg,62.7767,8.0668,51.85,78,44,9.04,NO,1681425418
458,Muncar,-8.4333,114.3333,77.02,87,100,4.07,ID,1681425418
459,Rodolfo Sánchez Taboada,31.7167,-116.5667,58.1,64,67,3.0,MX,1681425419
460,Korla,41.7597,86.1469,50.18,44,11,6.04,CN,1681425419
461,Karaton,-6.3424,106.1045,73.94,92,98,4.47,ID,1681425419
462,Grand Forks,47.9417,-97.4337,42.73,65,75,19.57,US,1681425419
463,Hambantota,6.1241,81.1185,77.92,88,43,5.5,LK,1681425419
464,Belyy Yar,53.6039,91.3903,39.09,75,0,15.66,RU,1681425419
465,Awjilah,29.1081,21.2869,69.33,15,22,8.88,LY,1681425419
466,Usinsk,65.9939,57.5281,7.34,97,97,8.3,RU,1681425419
467,North Bend,43.4065,-124.2243,58.24,65,100,10.36,US,1681425419
468,Ingham,42.6,-84.3833,81.63,21,0,4.61,US,1681425419
469,Fukuechō,32.6881,128.8419,62.87,83,100,15.82,JP,1681425419
470,Touros,-5.1989,-35.4608,78.22,86,98,9.46,BR,1681425419
471,Nelson Bay,-32.7167,152.15,70.11,73,50,7.0,AU,1681425420
472,Trairi,-3.2778,-39.2689,77.09,88,90,7.85,BR,1681425334
473,Hamilton,39.1834,-84.5333,82.35,24,0,5.75,US,1681425339
474,Balkhash,46.844,74.9804,47.82,53,75,10.78,KZ,1681425420
475,Baní,18.2833,-70.3333,81.86,75,10,7.2,DO,1681425420
476,Tsimmerbude,54.675,20.1347,48.25,95,99,7.87,RU,1681425420
477,Corn Island,12.1694,-83.0418,80.92,79,35,17.31,NI,1681425420
478,Kudahuvadhoo,2.6708,72.8944,82.31,73,11,2.17,MV,1681425420
479,Dzhankoy,45.7167,34.4,50.29,82,48,11.59,UA,1681425420
480,Zhangye,38.9342,100.4517,42.42,50,85,1.72,CN,1681425420
481,Wonthaggi,-38.6044,145.5913,57.81,75,2,11.25,AU,1681425420
482,Bereda,43.2686,-7.5406,48.15,100,100,8.5,ES,1681425420
483,Moose Jaw,50.4001,-105.5344,35.87,93,100,8.05,CA,1681425420
484,Nioro,13.35,-15.75,83.16,46,100,7.38,GM,1681425421
485,Sibolga,1.7427,98.7792,75.7,91,82,2.89,ID,1681425421
486,Lorengau,-2.0226,147.2712,83.55,79,67,14.61,PG,1681425264
487,Moss Vale,-34.55,150.3833,56.16,97,86,3.83,AU,1681425422
488,Xining,36.6167,101.7667,36.52,86,93,2.71,CN,1681425423
489,Oistins,13.0667,-59.5333,80.69,69,20,13.8,BB,1681425423
490,Port Moresby,-9.4431,147.1797,76.42,94,40,3.44,PG,1681425352
491,Poltavka,54.3663,71.7632,32.63,83,60,17.72,RU,1681425423
492,Mt. Pleasant,32.7941,-79.8626,70.12,96,100,6.91,US,1681425374
493,Champerico,14.3,-91.9167,86.54,61,77,7.7,GT,1681425424
494,Onega,63.9061,38.1404,16.59,89,4,5.61,RU,1681425424
495,Turukhansk,65.8167,87.9833,-10.07,100,100,4.47,RU,1681425425
496,Limbang,4.75,115.0,80.71,97,93,1.81,MY,1681425425
497,Tessalit,20.1986,1.0114,82.11,10,70,11.12,ML,1681425425
498,Nagato,34.3833,131.2,59.05,85,100,7.7,JP,1681425425
499,Naze,28.3667,129.4833,67.12,95,95,10.31,JP,1681425426
500,Loíza,18.4313,-65.8802,81.28,73,20,17.27,PR,1681425426
501,Rovnoye,50.7765,46.0509,50.27,90,100,28.43,RU,1681425426
502,Moindou,-21.6924,165.677,75.74,87,100,5.46,NC,1681425426
503,Cumpas,29.9833,-109.7833,79.66,17,5,26.28,MX,1681425427
504,Inhambane,-23.865,35.3833,72.32,84,0,10.13,MZ,1681425427
505,Joshīmath,30.5667,79.5667,52.99,42,1,8.7,IN,1681425428
506,Gloucester,51.8657,-2.2431,44.73,82,80,6.49,GB,1681425428
507,Severnyy,50.677,36.5532,44.64,93,100,11.18,RU,1681425429
508,Togul,53.465,85.9128,39.36,70,99,13.15,RU,1681425429
509,Port-Cartier,50.0334,-66.8654,39.42,93,85,3.51,CA,1681425429
510,Agustin Codazzi,10.0341,-73.2361,93.18,70,93,5.5,CO,1681425429
511,Laas,46.6166,10.7002,38.28,94,100,7.63,IT,1681425429
512,Waddān,29.1614,16.139,70.2,12,66,7.63,LY,1681425429
513,Alekseyevsk,57.8406,108.3492,16.14,83,24,4.0,RU,1681425430
514,Alenquer,-1.9417,-54.7383,76.89,92,96,2.42,BR,1681425430
515,Mhango,-3.2833,32.85,63.99,98,100,2.04,TZ,1681425430
516,Verāval,20.9,70.3667,78.66,64,99,11.48,IN,1681425430
517,Bethanien,-26.502,17.1583,60.03,42,17,4.74,NA,1681425430
518,Tonantins,-2.8731,-67.8022,80.6,80,91,1.45,BR,1681425431
519,Jalu,29.0331,21.5482,68.85,16,29,9.62,LY,1681425431
520,Sergeevka,53.88,67.4158,33.84,84,98,15.82,KZ,1681425431
521,Ucluelet,48.9329,-125.5528,50.31,73,70,1.01,CA,1681425432
522,Linhares,-19.3911,-40.0722,73.94,93,50,3.58,BR,1681425432
523,Bandundu Province,-3.3167,17.3667,74.79,80,7,2.77,CD,1681425432
524,Eenhana,-17.4667,16.3333,71.91,44,39,1.61,NA,1681425433
525,Mombetsu,44.3525,143.3525,44.11,60,7,12.73,JP,1681425433
526,Morondava,-20.2833,44.2833,75.33,83,0,3.69,MG,1681425434
527,Oshikango,-17.4,15.8833,76.82,43,65,5.64,NA,1681425434
528,Hibbing,47.4272,-92.9377,61.95,33,0,12.66,US,1681425434
529,Pārsābād,39.6482,47.9174,52.43,69,94,5.61,IR,1681425434
530,Atar,20.5169,-13.0499,84.58,42,45,6.11,MR,1681425434
531,Tolaga Bay,-38.3667,178.3,63.07,80,100,8.05,NZ,1681425435
532,Bubaque,11.2833,-15.8333,77.34,77,30,15.95,GW,1681425435
533,Geraldton,-28.7667,114.6,64.81,52,100,21.85,AU,1681425435
534,Corciano,43.129,12.2874,43.14,90,20,6.91,IT,1681425435
535,Amuntai,-2.4177,115.2494,75.31,95,83,1.23,ID,1681425436
536,Tselinnoye,53.0833,85.6667,37.8,76,99,12.88,RU,1681425436
537,Poum,-20.2333,164.0167,77.7,83,100,9.15,NC,1681425436
538,Murdochville,48.9583,-65.5006,32.88,98,87,0.58,CA,1681425437
539,Vestmannaeyjar,63.4427,-20.2734,43.38,76,100,6.85,IS,1681425437
540,Madison,34.7334,-86.5667,70.11,65,100,11.99,US,1681425293
541,Stornoway,58.2093,-6.3865,40.93,89,20,2.3,GB,1681425437
542,Rio Grande,-32.035,-52.0986,62.71,62,100,11.99,BR,1681425438
543,Maceió,-9.6658,-35.7353,76.44,88,0,4.61,BR,1681425325
544,Assiut,27.181,31.1837,66.38,23,20,4.94,EG,1681425438
545,Arrondissement de Limoges,45.75,1.3333,39.76,93,20,5.75,FR,1681425438
546,Chernyshevskiy,63.0128,112.4714,11.19,92,64,5.39,RU,1681425438
547,Malye Derbety,47.9547,44.6808,51.82,88,100,25.5,RU,1681425438
548,Lundamo,63.1333,10.3,41.67,77,86,13.76,NO,1681425438
549,Gamba,-2.65,10.0,78.64,89,100,3.49,GA,1681425439
550,Solomenskoye,44.2167,44.3528,47.86,69,100,14.03,RU,1681425439
551,Tual,-5.6667,132.75,82.99,74,89,2.04,ID,1681425439
552,Bolshaya Dzhalga,45.9695,42.6966,49.1,76,100,31.34,RU,1681425440
553,Río Gallegos,-51.6226,-69.2181,42.85,65,0,9.22,AR,1681425440
554,Weinan,34.5036,109.5089,59.65,79,100,8.86,CN,1681425440
555,Napier City,-39.4833,176.9167,63.28,82,100,5.01,NZ,1681425158
556,Boende,-0.2167,20.8667,72.72,87,64,2.3,CD,1681425440
557,Wangaratta,-36.3667,146.3333,54.46,98,0,3.58,AU,1681425441
558,Grants Pass,42.439,-123.3284,62.17,24,100,3.44,US,1681425262
559,Lagoa Vermelha,-28.2086,-51.5258,60.62,96,99,7.67,BR,1681425442
560,Sahuaripa,29.05,-109.2333,84.09,14,3,23.96,MX,1681425442
561,Aswān,24.0934,32.907,67.3,20,0,8.05,EG,1681425443
562,São Filipe,14.8961,-24.4956,73.8,79,69,4.9,CV,1681425443
563,Cascais,38.6979,-9.4215,56.93,70,61,20.0,PT,1681425444
